[
  { "Id": 1, "Name": "Helwan", "LineId": 1, "Latitude": 29.8491, "Longitude": 31.3342, "Order": 1 },
  { "Id": 2, "Name": "Ain Helwan", "LineId": 1, "Latitude": 29.8627, "Longitude": 31.3246, "Order": 2 },
  { "Id": 3, "Name": "Helwan University", "LineId": 1, "Latitude": 29.8695, "Longitude": 31.3201, "Order": 3 },
  { "Id": 4, "Name": "Wadi Hof", "LineId": 1, "Latitude": 29.8790, "Longitude": 31.3135, "Order": 4 },
  { "Id": 5, "Name": "Hadayek Helwan", "LineId": 1, "Latitude": 29.8973, "Longitude": 31.3045, "Order": 5 },
  { "Id": 6, "Name": "El-Maasara", "LineId": 1, "Latitude": 29.9061, "Longitude": 31.2993, "Order": 6 },
  { "Id": 7, "Name": "Tora El-Asmant", "LineId": 1, "Latitude": 29.9259, "Longitude": 31.2870, "Order": 7 },
  { "Id": 8, "Name": "Kozzika", "LineId": 1, "Latitude": 29.9366, "Longitude": 31.2814, "Order": 8 },
  { "Id": 9, "Name": "Tora El-Balad", "LineId": 1, "Latitude": 29.9464, "Longitude": 31.2729, "Order": 9 },
  { "Id": 10, "Name": "Sakanat El-Maadi", "LineId": 1, "Latitude": 29.9533, "Longitude": 31.2632, "Order": 10 },
  { "Id": 11, "Name": "Maadi", "LineId": 1, "Latitude": 29.9603, "Longitude": 31.2576, "Order": 11 },
  { "Id": 12, "Name": "Hadayek El-Maadi", "LineId": 1, "Latitude": 29.9699, "Longitude": 31.2504, "Order": 12 },
  { "Id": 13, "Name": "Dar El-Salam", "LineId": 1, "Latitude": 29.9821, "Longitude": 31.2422, "Order": 13 },
  { "Id": 14, "Name": "El-Zahraa", "LineId": 1, "Latitude": 29.9956, "Longitude": 31.2312, "Order": 14 },
  { "Id": 15, "Name": "Mar Girgis", "LineId": 1, "Latitude": 30.0064, "Longitude": 31.2295, "Order": 15 },
  { "Id": 16, "Name": "El-Malek El-Saleh", "LineId": 1, "Latitude": 30.0170, "Longitude": 31.2314, "Order": 16 },
  { "Id": 17, "Name": "Al-Sayeda Zeinab", "LineId": 1, "Latitude": 30.0290, "Longitude": 31.2350, "Order": 17 },
  { "Id": 18, "Name": "Saad Zaghloul", "LineId": 1, "Latitude": 30.0370, "Longitude": 31.2380, "Order": 18 },
  { "Id": 19, "Name": "Sadat", "LineId": 1, "Latitude": 30.0444, "Longitude": 31.2357, "Order": 19 },
  { "Id": 20, "Name": "Nasser", "LineId": 1, "Latitude": 30.0535, "Longitude": 31.2387, "Order": 20 },
  { "Id": 21, "Name": "Orabi", "LineId": 1, "Latitude": 30.0567, "Longitude": 31.2420, "Order": 21 },
  { "Id": 22, "Name": "Shohadaa", "LineId": 1, "Latitude": 30.0610, "Longitude": 31.2461, "Order": 22 },
  { "Id": 23, "Name": "Ghamra", "LineId": 1, "Latitude": 30.0691, "Longitude": 31.2646, "Order": 23 },
  { "Id": 24, "Name": "El-Demerdash", "LineId": 1, "Latitude": 30.0773, "Longitude": 31.2778, "Order": 24 },
  { "Id": 25, "Name": "Manshiet El-Sadr", "LineId": 1, "Latitude": 30.0821, "Longitude": 31.2875, "Order": 25 },
  { "Id": 26, "Name": "Kobri El-Qobba", "LineId": 1, "Latitude": 30.0872, "Longitude": 31.2941, "Order": 26 },
  { "Id": 27, "Name": "Hammamat El-Qobba", "LineId": 1, "Latitude": 30.0916, "Longitude": 31.2995, "Order": 27 },
  { "Id": 28, "Name": "Saray El-Qobba", "LineId": 1, "Latitude": 30.0970, "Longitude": 31.3048, "Order": 28 },
  { "Id": 29, "Name": "Hadayeq El-Zaitoun", "LineId": 1, "Latitude": 30.1059, "Longitude": 31.3105, "Order": 29 },
  { "Id": 30, "Name": "Helmeyet El-Zaitoun", "LineId": 1, "Latitude": 30.1131, "Longitude": 31.3139, "Order": 30 },
  { "Id": 31, "Name": "El-Matareyya", "LineId": 1, "Latitude": 30.1213, "Longitude": 31.3138, "Order": 31 },
  { "Id": 32, "Name": "Ain Shams", "LineId": 1, "Latitude": 30.1310, "Longitude": 31.3180, "Order": 32 },
  { "Id": 33, "Name": "Ezbet El-Nakhl", "LineId": 1, "Latitude": 30.1400, "Longitude": 31.3240, "Order": 33 },
  { "Id": 34, "Name": "El-Marg", "LineId": 1, "Latitude": 30.1520, "Longitude": 31.3350, "Order": 34 },
  { "Id": 35, "Name": "New El-Marg", "LineId": 1, "Latitude": 30.1630, "Longitude": 31.3380, "Order": 35 },
  { "Id": 36, "Name": "Shubra El-Kheima", "LineId": 2, "Latitude": 30.1220, "Longitude": 31.2440, "Order": 1 },
  { "Id": 37, "Name": "Koliet El-Zeraa", "LineId": 2, "Latitude": 30.1130, "Longitude": 31.2480, "Order": 2 },
  { "Id": 38, "Name": "Mezallat", "LineId": 2, "Latitude": 30.1040, "Longitude": 31.2460, "Order": 3 },
  { "Id": 39, "Name": "Khalafawy", "LineId": 2, "Latitude": 30.0970, "Longitude": 31.2450, "Order": 4 },
  { "Id": 40, "Name": "St. Teresa", "LineId": 2, "Latitude": 30.0870, "Longitude": 31.2450, "Order": 5 },
  { "Id": 41, "Name": "Rod El-Farag", "LineId": 2, "Latitude": 30.0800, "Longitude": 31.2450, "Order": 6 },
  { "Id": 42, "Name": "Massara", "LineId": 2, "Latitude": 30.0730, "Longitude": 31.2450, "Order": 7 },
  { "Id": 43, "Name": "Shohadaa", "LineId": 2, "Latitude": 30.0610, "Longitude": 31.2460, "Order": 8 },
  { "Id": 44, "Name": "Attaba", "LineId": 2, "Latitude": 30.0520, "Longitude": 31.2460, "Order": 9 },
  { "Id": 45, "Name": "Mohamed Naguib", "LineId": 2, "Latitude": 30.0450, "Longitude": 31.2440, "Order": 10 },
  { "Id": 46, "Name": "Sadat", "LineId": 2, "Latitude": 30.0444, "Longitude": 31.2357, "Order": 11 },
  { "Id": 47, "Name": "Opera", "LineId": 2, "Latitude": 30.0419, "Longitude": 31.2249, "Order": 12 },
  { "Id": 48, "Name": "Dokki", "LineId": 2, "Latitude": 30.0380, "Longitude": 31.2120, "Order": 13 },
  { "Id": 49, "Name": "Bohooth", "LineId": 2, "Latitude": 30.0350, "Longitude": 31.2000, "Order": 14 },
  { "Id": 50, "Name": "Cairo University", "LineId": 2, "Latitude": 30.0270, "Longitude": 31.2010, "Order": 15 },
  { "Id": 51, "Name": "Faisal", "LineId": 2, "Latitude": 30.0170, "Longitude": 31.2030, "Order": 16 },
  { "Id": 52, "Name": "Giza", "LineId": 2, "Latitude": 30.0100, "Longitude": 31.2070, "Order": 17 },
  { "Id": 53, "Name": "Omm El-Misryeen", "LineId": 2, "Latitude": 30.0050, "Longitude": 31.2080, "Order": 18 },
  { "Id": 54, "Name": "Sakiat Mekki", "LineId": 2, "Latitude": 29.9990, "Longitude": 31.2080, "Order": 19 },
  { "Id": 55, "Name": "El-Monib", "LineId": 2, "Latitude": 29.9810, "Longitude": 31.2120, "Order": 20 },
  { "Id": 56, "Name": "Adly Mansour", "LineId": 3, "Latitude": 30.1460, "Longitude": 31.4210, "Order": 1 },
  { "Id": 57, "Name": "El-Haykestep", "LineId": 3, "Latitude": 30.1430, "Longitude": 31.4040, "Order": 2 },
  { "Id": 58, "Name": "Omar Ibn El-Khattab", "LineId": 3, "Latitude": 30.1400, "Longitude": 31.3940, "Order": 3 },
  { "Id": 59, "Name": "Qubaa", "LineId": 3, "Latitude": 30.1340, "Longitude": 31.3830, "Order": 4 },
  { "Id": 60, "Name": "Hesham Barakat", "LineId": 3, "Latitude": 30.1310, "Longitude": 31.3720, "Order": 5 },
  { "Id": 61, "Name": "El-Nozha", "LineId": 3, "Latitude": 30.1270, "Longitude": 31.3600, "Order": 6 },
  { "Id": 62, "Name": "Nadi El-Shams", "LineId": 3, "Latitude": 30.1220, "Longitude": 31.3470, "Order": 7 },
  { "Id": 63, "Name": "Alf Maskan", "LineId": 3, "Latitude": 30.1180, "Longitude": 31.3400, "Order": 8 },
  { "Id": 64, "Name": "Heliopolis", "LineId": 3, "Latitude": 30.1130, "Longitude": 31.3330, "Order": 9 },
  { "Id": 65, "Name": "Haroun", "LineId": 3, "Latitude": 30.1090, "Longitude": 31.3270, "Order": 10 },
  { "Id": 66, "Name": "Al-Ahram", "LineId": 3, "Latitude": 30.1050, "Longitude": 31.3240, "Order": 11 },
  { "Id": 67, "Name": "Koleyet El-Banat", "LineId": 3, "Latitude": 30.1000, "Longitude": 31.3200, "Order": 12 },
  { "Id": 68, "Name": "Stadium", "LineId": 3, "Latitude": 30.0970, "Longitude": 31.3170, "Order": 13 },
  { "Id": 69, "Name": "Fair Zone", "LineId": 3, "Latitude": 30.0910, "Longitude": 31.3140, "Order": 14 },
  { "Id": 70, "Name": "Abbassiya", "LineId": 3, "Latitude": 30.0820, "Longitude": 31.2830, "Order": 15 },
  { "Id": 71, "Name": "Abdou Pasha", "LineId": 3, "Latitude": 30.0780, "Longitude": 31.2760, "Order": 16 },
  { "Id": 72, "Name": "El-Geish", "LineId": 3, "Latitude": 30.0730, "Longitude": 31.2660, "Order": 17 },
  { "Id": 73, "Name": "Bab El-Shaaria", "LineId": 3, "Latitude": 30.0640, "Longitude": 31.2550, "Order": 18 },
  { "Id": 74, "Name": "Attaba", "LineId": 3, "Latitude": 30.0520, "Longitude": 31.2460, "Order": 19 },
  { "Id": 75, "Name": "Nasser", "LineId": 3, "Latitude": 30.0535, "Longitude": 31.2387, "Order": 20 },
  { "Id": 76, "Name": "Maspero", "LineId": 3, "Latitude": 30.0550, "Longitude": 31.2300, "Order": 21 },
  { "Id": 77, "Name": "Safaa Hegazy", "LineId": 3, "Latitude": 30.0580, "Longitude": 31.2210, "Order": 22 },
  { "Id": 78, "Name": "Kit Kat", "LineId": 3, "Latitude": 30.0660, "Longitude": 31.2130, "Order": 23 },
  { "Id": 79, "Name": "Sudan Street", "LineId": 3, "Latitude": 30.0668, "Longitude": 31.2108, "Order": 24 },
  { "Id": 80, "Name": "Imbaba", "LineId": 3, "Latitude": 30.0625, "Longitude": 31.2052, "Order": 25 },
  { "Id": 81, "Name": "El-Bohy", "LineId": 3, "Latitude": 30.0607, "Longitude": 31.2019, "Order": 26 },
  { "Id": 82, "Name": "Al-Qawmeya Al-Arabiya", "LineId": 3, "Latitude": 30.0580, "Longitude": 31.1980, "Order": 27 },
  { "Id": 83, "Name": "Ring Road", "LineId": 3, "Latitude": 30.0550, "Longitude": 31.1900, "Order": 28 },
  { "Id": 84, "Name": "Rod El-Farag Axis", "LineId": 3, "Latitude": 30.0523, "Longitude": 31.1857, "Order": 29 },
  { "Id": 85, "Name": "El-Tawfikeya", "LineId": 3, "Latitude": 30.0488, "Longitude": 31.1789, "Order": 30 },
  { "Id": 86, "Name": "Wadi El-Nil", "LineId": 3, "Latitude": 30.0457, "Longitude": 31.1720, "Order": 31 },
  { "Id": 87, "Name": "Gamaat El-Dowal Al-Arabiya", "LineId": 3, "Latitude": 30.0419, "Longitude": 31.1653, "Order": 32 },
  { "Id": 88, "Name": "Bulaq El-Dakrour", "LineId": 3, "Latitude": 30.0381, "Longitude": 31.1587, "Order": 33 },
  { "Id": 89, "Name": "Cairo University", "LineId": 3, "Latitude": 30.0330, "Longitude": 31.1500, "Order": 34 }
]